{
	"?xml": "",
	"DATASET": {
		"ROW1": {
			"CITYNAME": "Surat",
			"ZONE_NAME": "Old East (varachha) Zone",
			"WARD_NAME": "PunaWest",
			"NAME_OF_PARKING": "Below Sitanagar Fly Over Bridge",
			"PARKING_ADDRESS": "Under Sitanagar Flyover Bridge Pune Village.",
			"LATITUDE": 21.202553,
			"LONGITUDE": 72.867081,
			"NO._OF_4_WHEELER_PARKING": 97,
			"NO._OF_2_WHEELER_PARKING": 252
		},
		"ROW2": {
			"CITYNAME": "Surat",
			"ZONE_NAME": "Old East (varachha) Zone",
			"WARD_NAME": "Kapodra",
			"NAME_OF_PARKING": "Open Plot Near Gayatri Soc. FPNo.108 TP03 (Karanj)",
			"PARKING_ADDRESS": "TP03 (Karanj) Fa.&#xFFFD;Plot no.&#xFFFD;In the plot near 108 Gayatri Society.",
			"LATITUDE": 21.211754,
			"LONGITUDE": 72.865652,
			"NO._OF_4_WHEELER_PARKING": 107,
			"NO._OF_2_WHEELER_PARKING": 377
		},
		"ROW3": {
			"CITYNAME": "Surat",
			"ZONE_NAME": "Old East (varachha) Zone",
			"WARD_NAME": "Umarwada  Matawadi",
			"NAME_OF_PARKING": "Open Plot at FPNo.269 TP04 (AshvanikumarNavagam)",
			"PARKING_ADDRESS": "TP4 (Ashwani Kumar  Navagam) Fa.&#xFFFD;Plot no.&#xFFFD;In the open plot of 269",
			"LATITUDE": 21.204786,
			"LONGITUDE": 72.841967,
			"NO._OF_4_WHEELER_PARKING": 90,
			"NO._OF_2_WHEELER_PARKING": 300
		},
		"ROW4": {
			"CITYNAME": "Surat",
			"ZONE_NAME": "Old East (varachha) Zone",
			"WARD_NAME": "Umarwada  Matawadi",
			"NAME_OF_PARKING": "Multi level parking at FPNo.&#xFFFD;M5 TP04 (Ashvanikumar)",
			"PARKING_ADDRESS": "TP04 (Ashwani Kumar) FP no.&#xFFFD;Multilevel parking at M5 Mini Bazaar",
			"LATITUDE": 21.208912,
			"LONGITUDE": 72.851701,
			"NO._OF_4_WHEELER_PARKING": 87,
			"NO._OF_2_WHEELER_PARKING": 684
		},
		"ROW5": {
			"CITYNAME": "Surat",
			"ZONE_NAME": "Old East (varachha) Zone",
			"WARD_NAME": "Phulpada Ashwani Kumar",
			"NAME_OF_PARKING": "TP04 (Ashwani Kumar) FP no.&#xFFFD;M3 Multilevel parking near Sardar Smriti Bhavan",
			"PARKING_ADDRESS": "TP04 (Ashwani Kumar) FP no.&#xFFFD;M3 Multilevel parking near Sardar Smriti Bhavan",
			"LATITUDE": 21.213746,
			"LONGITUDE": 72.850707,
			"NO._OF_4_WHEELER_PARKING": 182,
			"NO._OF_2_WHEELER_PARKING": 613
		},
		"ROW6": {
			"CITYNAME": "Surat",
			"ZONE_NAME": "Old East (varachha) Zone",
			"WARD_NAME": "Karanj  Magob",
			"NAME_OF_PARKING": "Under the Arch's School Flyover Bridge from Budheshwar Mahadev",
			"PARKING_ADDRESS": "Under the Arch's School Flyover Bridge from Budheshwar Mahadev",
			"LATITUDE": 21.200665,
			"LONGITUDE": 72.860136,
			"NO._OF_4_WHEELER_PARKING": 29,
			"NO._OF_2_WHEELER_PARKING": 252
		},
		"ROW7": {
			"CITYNAME": "Surat",
			"ZONE_NAME": "Old East (varachha) Zone",
			"WARD_NAME": "PunaWest",
			"NAME_OF_PARKING": "Under the flyover bridge near Vishwakarma junction",
			"PARKING_ADDRESS": "Under the flyover bridge near Vishwakarma junction",
			"LATITUDE": 21.193607,
			"LONGITUDE": 72.869664,
			"NO._OF_4_WHEELER_PARKING": 94,
			"NO._OF_2_WHEELER_PARKING": 244
		},
		"ROW8": {
			"CITYNAME": "Surat",
			"ZONE_NAME": "Old East (varachha) Zone",
			"WARD_NAME": "PunaWest",
			"NAME_OF_PARKING": "Under Flyover Bridge at Parvat Patiya Junction on SuratBardoli Main Road",
			"PARKING_ADDRESS": "Under Flyover Bridge at Parvat Patiya Junction on SuratBardoli Main Road",
			"LATITUDE": 21.191451,
			"LONGITUDE": 72.860968,
			"NO._OF_4_WHEELER_PARKING": 64,
			"NO._OF_2_WHEELER_PARKING": 252
		},
		"ROW9": {
			"CITYNAME": "Surat",
			"ZONE_NAME": "Old East (varachha) Zone",
			"WARD_NAME": "PunaWest",
			"NAME_OF_PARKING": "Under newly constructed flyover bridge at Kangaroo junction on SuratBardoli main road",
			"PARKING_ADDRESS": "Under newly constructed flyover bridge at Kangaroo junction on SuratBardoli main road",
			"LATITUDE": 21.190493,
			"LONGITUDE": 72.870462,
			"NO._OF_4_WHEELER_PARKING": 168,
			"NO._OF_2_WHEELER_PARKING": 405
		},
		"ROW10": {
			"CITYNAME": "Surat",
			"ZONE_NAME": "Old East (varachha) Zone",
			"WARD_NAME": "Phulpada Ashwani Kumar",
			"NAME_OF_PARKING": "In the space allotted under Shri Nathji Flyover Bridge on Varachha Main Road",
			"PARKING_ADDRESS": "In the space allotted under Shri Nathji Flyover Bridge on Varachha Main Road",
			"LATITUDE": 21.21539,
			"LONGITUDE": 72.862653,
			"NO._OF_4_WHEELER_PARKING": 52,
			"NO._OF_2_WHEELER_PARKING": 278
		},
		"ROW11": {
			"CITYNAME": "Surat",
			"ZONE_NAME": "Old East (varachha) Zone",
			"WARD_NAME": "Kapodra",
			"NAME_OF_PARKING": "TP Scheme No.&#xFFFD;16 (Kapodra) Fa.&#xFFFD;Plot no.&#xFFFD;Plot at 44 (Local Commercial Center) and space allotted for 'Pay and Park'",
			"PARKING_ADDRESS": "TP Scheme No.&#xFFFD;16 (Kapodra) Fa.&#xFFFD;Plot no.&#xFFFD;Plot at 44 (Local Commercial Center) and space allotted for 'Pay and Park'",
			"LATITUDE": 21.21494,
			"LONGITUDE": 72.867162,
			"NO._OF_4_WHEELER_PARKING": 197,
			"NO._OF_2_WHEELER_PARKING": 705
		},
		"ROW12": {
			"CITYNAME": "Surat",
			"ZONE_NAME": "Old East (varachha) Zone",
			"WARD_NAME": "Umarwada  Matawadi",
			"NAME_OF_PARKING": "Under the new bridge opposite New Bombay Market.",
			"PARKING_ADDRESS": "Under the new bridge opposite New Bombay Market.",
			"LATITUDE": 21.194881,
			"LONGITUDE": 72.848523,
			"NO._OF_4_WHEELER_PARKING": 21,
			"NO._OF_2_WHEELER_PARKING": 194
		},
		"ROW13": {
			"CITYNAME": "Surat",
			"ZONE_NAME": "Old East (varachha) Zone",
			"WARD_NAME": "PunaWest",
			"NAME_OF_PARKING": "TP&#xFFFD;53 (Magob  Dumbhal) Fa.&#xFFFD;Plot No.88 Multilevel Parking",
			"PARKING_ADDRESS": "TP&#xFFFD;53 (Magob  Dumbhal) Fa.&#xFFFD;Plot No.88 Multilevel Parking",
			"LATITUDE": 21.1943937,
			"LONGITUDE": 72.8682365,
			"NO._OF_4_WHEELER_PARKING": 344,
			"NO._OF_2_WHEELER_PARKING": 506
		},
		"ROW14": {
			"CITYNAME": "Surat",
			"ZONE_NAME": "South ZoneA (Udhana)",
			"WARD_NAME": "18 (Udhana)",
			"NAME_OF_PARKING": "\"Pay & Park\" Scheme  for On Street Pay & Park at bothside of Udhana main road from Udhana Darwaja to Satyanagar gate  in Udhana ZoneA",
			"PARKING_ADDRESS": "Udhana Darwaja Udhana Main Road",
			"LATITUDE": 21.182803,
			"LONGITUDE": 72.8317627,
			"NO._OF_4_WHEELER_PARKING": 250,
			"NO._OF_2_WHEELER_PARKING": 307
		},
		"ROW15": {
			"CITYNAME": "Surat",
			"ZONE_NAME": "South ZoneA (Udhana)",
			"WARD_NAME": "18 (Udhana)",
			"NAME_OF_PARKING": "\"Pay & Park\" Scheme   Below Flyover Bridge near  Kharvar nagar junction at T.P 06 (MajuraKhatoara) in Udhana Zone  A",
			"PARKING_ADDRESS": "Kharvar nagar junction Udhana Main Road",
			"LATITUDE": 21.178026,
			"LONGITUDE": 72.8353471,
			"NO._OF_4_WHEELER_PARKING": 40,
			"NO._OF_2_WHEELER_PARKING": 360
		},
		"ROW16": {
			"CITYNAME": "Surat",
			"ZONE_NAME": "South ZoneA (Udhana)",
			"WARD_NAME": "29 (Bamroli)",
			"NAME_OF_PARKING": "\"Pay & Park\" Scheme  at  Open Plot at BamroliAlthan Road  Near  BalajiNagar Opp. DMart F.P.No.200 (Sale For Commercial) T.P.S.58 (Bamroli) in SouthZone (Udhana)A",
			"PARKING_ADDRESS": "Opp. DMart BamroliAlthan Road",
			"LATITUDE": 21.148325,
			"LONGITUDE": 72.8180654,
			"NO._OF_4_WHEELER_PARKING": 62,
			"NO._OF_2_WHEELER_PARKING": 580
		},
		"ROW17": {
			"CITYNAME": "Surat",
			"ZONE_NAME": "NORTH ZONE",
			"WARD_NAME": "KATARGAM",
			"NAME_OF_PARKING": "BELOW KATARGAM FLY OVER BRIDGE",
			"PARKING_ADDRESS": "KATARGAM FLY OVER BRIDGEKATARGAMSURAT",
			"LATITUDE": "NA",
			"LONGITUDE": "NA",
			"NO._OF_4_WHEELER_PARKING": 575,
			"NO._OF_2_WHEELER_PARKING": 1500
		},
		"ROW18": {
			"CITYNAME": "Surat",
			"ZONE_NAME": "NORTH ZONE",
			"WARD_NAME": "KATARGAM",
			"NAME_OF_PARKING": "MULTI LEVEL PARKING",
			"PARKING_ADDRESS": "TP 12FP 18 NEAR PARAS MARKETKATARGAM SURAT",
			"LATITUDE": "NA",
			"LONGITUDE": "NA",
			"NO._OF_4_WHEELER_PARKING": 260,
			"NO._OF_2_WHEELER_PARKING": 250
		},
		"ROW19": {
			"CITYNAME": "Surat",
			"ZONE_NAME": "NORTH ZONE",
			"WARD_NAME": "KATARGAM",
			"NAME_OF_PARKING": "ON STREET PARKING",
			"PARKING_ADDRESS": "KIRAN HOSPITAL TO MEGHVAL COLONY",
			"LATITUDE": "NA",
			"LONGITUDE": "NA",
			"NO._OF_4_WHEELER_PARKING": 85,
			"NO._OF_2_WHEELER_PARKING": 200
		},
		"ROW20": {
			"CITYNAME": "Surat",
			"ZONE_NAME": "NORTH ZONE",
			"WARD_NAME": "KATARGAM",
			"NAME_OF_PARKING": "ON STREET PARKING",
			"PARKING_ADDRESS": "KATARGAM VAHAN  DEPO TO JENITH MILL",
			"LATITUDE": "NA",
			"LONGITUDE": "NA",
			"NO._OF_4_WHEELER_PARKING": 55,
			"NO._OF_2_WHEELER_PARKING": 140
		},
		"ROW21": {
			"CITYNAME": "Surat",
			"ZONE_NAME": "NORTH ZONE",
			"WARD_NAME": "KATARGAM",
			"NAME_OF_PARKING": "ON STREET PARKING",
			"PARKING_ADDRESS": "NANDU DOSHI NI WADI",
			"LATITUDE": "NA",
			"LONGITUDE": "NA",
			"NO._OF_4_WHEELER_PARKING": 65,
			"NO._OF_2_WHEELER_PARKING": 160
		},
		"ROW22": {
			"CITYNAME": "Surat",
			"ZONE_NAME": "NORTH ZONE",
			"WARD_NAME": "KATARGAM",
			"NAME_OF_PARKING": "ON STREET PARKING",
			"PARKING_ADDRESS": "GAJERA SCHOOL TO AKUR SCHOOL",
			"LATITUDE": "NA",
			"LONGITUDE": "NA",
			"NO._OF_4_WHEELER_PARKING": 40,
			"NO._OF_2_WHEELER_PARKING": 105
		},
		"ROW23": {
			"CITYNAME": "Surat",
			"ZONE_NAME": "NORTH ZONE",
			"WARD_NAME": "KATARGAM",
			"NAME_OF_PARKING": "ON STREET PARKING",
			"PARKING_ADDRESS": "PRANNATH HOSPITAL TO SINGANPOR CHAR RASTA",
			"LATITUDE": "NA",
			"LONGITUDE": "NA",
			"NO._OF_4_WHEELER_PARKING": 105,
			"NO._OF_2_WHEELER_PARKING": 270
		},
		"ROW24": {
			"CITYNAME": "Surat",
			"ZONE_NAME": "NORTH ZONE",
			"WARD_NAME": "KATARGAM",
			"NAME_OF_PARKING": "BELOW ALKAPURI FLY OVER BRIDGE",
			"PARKING_ADDRESS": "ALKAPURI FLY OVER BRIDGEKATARGAM",
			"LATITUDE": "NA",
			"LONGITUDE": "NA",
			"NO._OF_4_WHEELER_PARKING": 350,
			"NO._OF_2_WHEELER_PARKING": 940
		},
		"ROW25": {
			"CITYNAME": "Surat",
			"ZONE_NAME": "NORTH ZONE",
			"WARD_NAME": "AMROLI",
			"NAME_OF_PARKING": "BELOW UTRANAMROLI BRIDGE",
			"PARKING_ADDRESS": "UTRANAMROLI BRIDGENEAR MANISHA GARNALA",
			"LATITUDE": "NA",
			"LONGITUDE": "NA",
			"NO._OF_4_WHEELER_PARKING": 625,
			"NO._OF_2_WHEELER_PARKING": 1650
		},
		"ROW26": {
			"CITYNAME": "Surat",
			"ZONE_NAME": "South East (Limbayat) Zone",
			"WARD_NAME": "NA",
			"NAME_OF_PARKING": "Multi level Parking",
			"PARKING_ADDRESS": "TP08 (Umarwada) FP 147 Multi level Parking Umarwada",
			"LATITUDE": "21?11'17.1\" N",
			"LONGITUDE": "72?50'39.1\" E",
			"NO._OF_4_WHEELER_PARKING": 750,
			"NO._OF_2_WHEELER_PARKING": 250
		},
		"ROW27": {
			"CITYNAME": "Surat",
			"ZONE_NAME": "South East (Limbayat) Zone",
			"WARD_NAME": "NA",
			"NAME_OF_PARKING": "Under Fly Over Bridge",
			"PARKING_ADDRESS": "TP07 (Anjana)  Under Anjana Fly Over Bridge Anjana",
			"LATITUDE": "21?11'02.3\" N",
			"LONGITUDE": "72?50'48.4\" E",
			"NO._OF_4_WHEELER_PARKING": 400,
			"NO._OF_2_WHEELER_PARKING": 30
		},
		"ROW28": {
			"CITYNAME": "Surat",
			"ZONE_NAME": "South East (Limbayat) Zone",
			"WARD_NAME": "NA",
			"NAME_OF_PARKING": "Open Plot",
			"PARKING_ADDRESS": "TP07 (Anjana) FP 77Beside Raghukul Textile Market  Anjana",
			"LATITUDE": "21?11'11.3\" N",
			"LONGITUDE": "72?50'42.8\" E",
			"NO._OF_4_WHEELER_PARKING": 250,
			"NO._OF_2_WHEELER_PARKING": 15
		},
		"ROW29": {
			"CITYNAME": "Surat",
			"ZONE_NAME": "South East (Limbayat) Zone",
			"WARD_NAME": "NA",
			"NAME_OF_PARKING": "Open Plot",
			"PARKING_ADDRESS": "TP08 (Umarwada) FP 153 Opp. Anupam Textile Market Umarwada",
			"LATITUDE": "21?11'14.4\" N",
			"LONGITUDE": "72?50'44.2\" E",
			"NO._OF_4_WHEELER_PARKING": 300,
			"NO._OF_2_WHEELER_PARKING": 18
		},
		"ROW30": {
			"CITYNAME": "Surat",
			"ZONE_NAME": "South East (Limbayat) Zone",
			"WARD_NAME": "NA",
			"NAME_OF_PARKING": "Open Plot",
			"PARKING_ADDRESS": "TP08 (Umarwada) FP 150 Opp. Sagar Textile Market Umarwada",
			"LATITUDE": "21?11'17.4\" N",
			"LONGITUDE": "72?50'43.2\" E",
			"NO._OF_4_WHEELER_PARKING": 500,
			"NO._OF_2_WHEELER_PARKING": 30
		},
		"ROW31": {
			"CITYNAME": "Surat",
			"ZONE_NAME": "South East (Limbayat) Zone",
			"WARD_NAME": "NA",
			"NAME_OF_PARKING": "Open Plot",
			"PARKING_ADDRESS": "TP08 (Umarwada) FP 146 Opp. Multi level Parking Umarwada",
			"LATITUDE": "21?11'15.0\" N",
			"LONGITUDE": "72?50'39.1\" E",
			"NO._OF_4_WHEELER_PARKING": 300,
			"NO._OF_2_WHEELER_PARKING": 30
		},
		"ROW32": {
			"CITYNAME": "Surat",
			"ZONE_NAME": "South East (Limbayat) Zone",
			"WARD_NAME": "NA",
			"NAME_OF_PARKING": "Open Plot",
			"PARKING_ADDRESS": "TP08 (Umarwada) FP 143 Beside Surat Textile Market Umarwada",
			"LATITUDE": "21?11'22.7\" N",
			"LONGITUDE": "72?50'30.0\" E",
			"NO._OF_4_WHEELER_PARKING": 200,
			"NO._OF_2_WHEELER_PARKING": 25
		},
		"ROW33": {
			"CITYNAME": "Surat",
			"ZONE_NAME": "South East (Limbayat) Zone",
			"WARD_NAME": "NA",
			"NAME_OF_PARKING": "Open Plot",
			"PARKING_ADDRESS": "TP34 (magobDumbhal) FP 56 Beside Fruit Market Magob",
			"LATITUDE": "21?11'31.1\" N",
			"LONGITUDE": "72?51'18.0\" E",
			"NO._OF_4_WHEELER_PARKING": 400,
			"NO._OF_2_WHEELER_PARKING": 30
		},
		"ROW34": {
			"CITYNAME": "Surat",
			"ZONE_NAME": "South East (Limbayat) Zone",
			"WARD_NAME": "NA",
			"NAME_OF_PARKING": "On Street Parking",
			"PARKING_ADDRESS": "On Steet Parking On Kamela main Road Millnium Market To Anjana Garnala (Both Side) & On Steet Parking On Salasar Gate To Sai Darshan Market (Both side)",
			"LATITUDE": "21?11'14.8\" N",
			"LONGITUDE": "72?50'35.5\" E",
			"NO._OF_4_WHEELER_PARKING": 450,
			"NO._OF_2_WHEELER_PARKING": 60
		},
		"ROW35": {
			"CITYNAME": "Surat",
			"ZONE_NAME": "WEST ZONE (RANDER)",
			"WARD_NAME": "01Jahangirpura  Variav  Chhaprabhatha  Kosad",
			"NAME_OF_PARKING": "Under DabholiJahangirpura bridge",
			"PARKING_ADDRESS": "Opp. Salimabad society Surat  Olpad road Jahangirpura in T.P.S. No.30 (Rander) in West Zone (Rander).",
			"LATITUDE": 21.135984,
			"LONGITUDE": 72.472582,
			"NO._OF_4_WHEELER_PARKING": "NA",
			"NO._OF_2_WHEELER_PARKING": 100
		},
		"ROW36": {
			"CITYNAME": "Surat",
			"ZONE_NAME": "WEST ZONE (RANDER)",
			"WARD_NAME": "09Rander  Jahangirabad  Palanpur",
			"NAME_OF_PARKING": "At Open plot Nr. Saitirth junction in T.P.S. No.8 (Palanpur) F.P. No.129 in West Zone (Rander)",
			"PARKING_ADDRESS": "At Open plot Nr. Saitirth junction in T.P.S. No.8 (Palanpur) F.P. No.129 in West Zone (Rander)",
			"LATITUDE": 21.207861,
			"LONGITUDE": 72.77401,
			"NO._OF_4_WHEELER_PARKING": 40,
			"NO._OF_2_WHEELER_PARKING": 245
		},
		"ROW37": {
			"CITYNAME": "Surat",
			"ZONE_NAME": "WEST ZONE (RANDER)",
			"WARD_NAME": "10Adajan  Pal  Ichhapor",
			"NAME_OF_PARKING": "Under Star Bazar Flyover bridge",
			"PARKING_ADDRESS": "Surat  Hazira road Opp. Star Bazar Adajan",
			"LATITUDE": 21.18614,
			"LONGITUDE": 72.79359,
			"NO._OF_4_WHEELER_PARKING": 40,
			"NO._OF_2_WHEELER_PARKING": 230
		},
		"ROW38": {
			"CITYNAME": "Surat",
			"ZONE_NAME": "WEST ZONE (RANDER)",
			"WARD_NAME": "",
			"NAME_OF_PARKING": "Under Gujarat Gas circle Flyover bridge",
			"PARKING_ADDRESS": "Surat  Hazira road Nr. Gujarat gas circle Adajan",
			"LATITUDE": 21.19339,
			"LONGITUDE": 72.80081,
			"NO._OF_4_WHEELER_PARKING": "NA",
			"NO._OF_2_WHEELER_PARKING": 100
		},
		"ROW39": {
			"CITYNAME": "Surat",
			"ZONE_NAME": "WEST ZONE (RANDER)",
			"WARD_NAME": "",
			"NAME_OF_PARKING": "Under Sardar bridge (Laxmibai kelkar circle to vijay dairy)",
			"PARKING_ADDRESS": "Under Sardar bridge (Laxmibai kelkar circle to vijay dairy)",
			"LATITUDE": 21.1926,
			"LONGITUDE": 72.80362,
			"NO._OF_4_WHEELER_PARKING": "NA",
			"NO._OF_2_WHEELER_PARKING": 85
		},
		"ROW40": {
			"CITYNAME": "Surat",
			"ZONE_NAME": "WEST ZONE (RANDER)",
			"WARD_NAME": "",
			"NAME_OF_PARKING": "At Open plot Nr. Lilashahwadi in T.P.S. No.29 (Rander) F.P. No.140 in West Zone (Rander).",
			"PARKING_ADDRESS": "At Open plot Nr. Lilashahwadi in T.P.S. No.29 (Rander) F.P. No.140 in West Zone (Rander).",
			"LATITUDE": 21.213515,
			"LONGITUDE": 72.787969,
			"NO._OF_4_WHEELER_PARKING": 18,
			"NO._OF_2_WHEELER_PARKING": 105
		},
		"ROW41": {
			"CITYNAME": "Surat",
			"ZONE_NAME": "WEST ZONE (RANDER)",
			"WARD_NAME": "",
			"NAME_OF_PARKING": "At Open plot Opp. Bhumi Complex in T.P.S. No.13 (Adajan) F.P. No.178 in West Zone (Rander).",
			"PARKING_ADDRESS": "At Open plot Opp. Bhumi Complex in T.P.S. No.13 (Adajan) F.P. No.178 in West Zone (Rander).",
			"LATITUDE": 21.206544,
			"LONGITUDE": 72.789,
			"NO._OF_4_WHEELER_PARKING": 36,
			"NO._OF_2_WHEELER_PARKING": 195
		},
		"ROW42": {
			"CITYNAME": "Surat",
			"ZONE_NAME": "WEST ZONE (RANDER)",
			"WARD_NAME": "",
			"NAME_OF_PARKING": "At Open plot Surat  Hazira road  in T.P.S. No.16 (Pal) F.P. No.103 in West Zone (Rander).",
			"PARKING_ADDRESS": "At Open plot Surat  Hazira road at Pal Patiya  in T.P.S. No.16 (Pal) F.P. No.103 in West Zone (Rander).",
			"LATITUDE": 21.182473,
			"LONGITUDE": 72.779654,
			"NO._OF_4_WHEELER_PARKING": 30,
			"NO._OF_2_WHEELER_PARKING": 165
		},
		"ROW43": {
			"CITYNAME": "Surat",
			"ZONE_NAME": "WEST ZONE (RANDER)",
			"WARD_NAME": "",
			"NAME_OF_PARKING": "At Open plot Beside Kelly Residency Nr. Galaxy circle in T.P.S. No.16 (Pal) F.P. No.120 in West Zone (Rander).",
			"PARKING_ADDRESS": "At Open plot Beside Kelly Residency Nr. Galaxy circle in T.P.S. No.16 (Pal) F.P. No.120 in West Zone (Rander).",
			"LATITUDE": 21.188581,
			"LONGITUDE": 72.778614,
			"NO._OF_4_WHEELER_PARKING": 55,
			"NO._OF_2_WHEELER_PARKING": 290
		},
		"ROW44": {
			"CITYNAME": "Surat",
			"ZONE_NAME": "WEST ZONE (RANDER)",
			"WARD_NAME": "10Adajan  Pal  Ichhapor",
			"NAME_OF_PARKING": "At Open plot Beside Siddhchakra Residency Opp. Fortune Mall Nr. Galaxy circle in T.P.S. No.16 (Pal) F.P. No.119 in West Zone (Rander).",
			"PARKING_ADDRESS": "At Open plot Beside Siddhchakra Residency Opp. Fortune Mall Nr. Galaxy circle in T.P.S. No.16 (Pal) F.P. No.119 in West Zone (Rander).",
			"LATITUDE": 21.19091,
			"LONGITUDE": 72.77849,
			"NO._OF_4_WHEELER_PARKING": 35,
			"NO._OF_2_WHEELER_PARKING": 175
		},
		"ROW45": {
			"CITYNAME": "Surat",
			"ZONE_NAME": "WEST ZONE (RANDER)",
			"WARD_NAME": "",
			"NAME_OF_PARKING": "At Open plot Nr. Raj corner On L.P. Savani to Gauravpath road in T.P.S. No.10 (Pal) F.P. No.213 in West Zone (Rander).",
			"PARKING_ADDRESS": "At Open plot Nr. Raj corner On L.P. Savani to Gauravpath road in T.P.S. No.10 (Pal) F.P. No.213 in West Zone (Rander).",
			"LATITUDE": 21.200877,
			"LONGITUDE": 72.772273,
			"NO._OF_4_WHEELER_PARKING": 30,
			"NO._OF_2_WHEELER_PARKING": 165
		},
		"ROW46": {
			"CITYNAME": "Surat",
			"ZONE_NAME": "WEST ZONE (RANDER)",
			"WARD_NAME": "",
			"NAME_OF_PARKING": "On Street Parking at from Siddhi Vinayak temple to Pal R.T.O. Surat  Hazira main road in T.P.S. No.74 (Pal)  in West Zone (Rander).",
			"PARKING_ADDRESS": "On Street Parking at from Siddhi Vinayak temple to Pal R.T.O. Surat  Hazira main road in T.P.S. No.74 (Pal)  in West Zone (Rander).",
			"LATITUDE": 21.182451,
			"LONGITUDE": 72.783439,
			"NO._OF_4_WHEELER_PARKING": "NA",
			"NO._OF_2_WHEELER_PARKING": 100
		},
		"ROW47": {
			"CITYNAME": "Surat",
			"ZONE_NAME": "WEST ZONE (RANDER)",
			"WARD_NAME": "",
			"NAME_OF_PARKING": "At Open plot Opp Bhagat Party Plot L.P. Savani road  in T.P.S. No.32 (Adajan) F.P. No.82 in West Zone (Rander).",
			"PARKING_ADDRESS": "At Open plot Opp Bhagat Party Plot L.P. Savani road  in T.P.S. No.32 (Adajan) F.P. No.82 in West Zone (Rander).",
			"LATITUDE": 21.19826,
			"LONGITUDE": 72.78446,
			"NO._OF_4_WHEELER_PARKING": 10,
			"NO._OF_2_WHEELER_PARKING": 100
		},
		"ROW48": {
			"CITYNAME": "Surat",
			"ZONE_NAME": "WEST ZONE (RANDER)",
			"WARD_NAME": "",
			"NAME_OF_PARKING": "Under Flyover Bridge Opp. Ascon Plaza Nr. Bhulka Bhavan school Adajan in West Zone (Rander)",
			"PARKING_ADDRESS": "Under Flyover Bridge Opp. Ascon Plaza Nr. Bhulka Bhavan school Adajan in West Zone (Rander)",
			"LATITUDE": 21.19312,
			"LONGITUDE": 72.79939,
			"NO._OF_4_WHEELER_PARKING": "NA",
			"NO._OF_2_WHEELER_PARKING": 75
		},
		"ROW49": {
			"CITYNAME": "Surat",
			"ZONE_NAME": "Central Zone",
			"WARD_NAME": "NA",
			"NAME_OF_PARKING": "near gandhi smruti bhava multilevel",
			"PARKING_ADDRESS": "nanpura",
			"LATITUDE": 21.18542,
			"LONGITUDE": 72.81403,
			"NO._OF_4_WHEELER_PARKING": 60,
			"NO._OF_2_WHEELER_PARKING": 200
		},
		"ROW50": {
			"CITYNAME": "Surat",
			"ZONE_NAME": "Central Zone",
			"WARD_NAME": "NA",
			"NAME_OF_PARKING": "near rang upvan bhavan Mutilelvel",
			"PARKING_ADDRESS": "near makkai pool nanpura",
			"LATITUDE": 21.193577,
			"LONGITUDE": 72.816755,
			"NO._OF_4_WHEELER_PARKING": 100,
			"NO._OF_2_WHEELER_PARKING": 200
		},
		"ROW51": {
			"CITYNAME": "Surat",
			"ZONE_NAME": "Central Zone",
			"WARD_NAME": "NA",
			"NAME_OF_PARKING": "near sai baba temple multilevel",
			"PARKING_ADDRESS": "chauta pool",
			"LATITUDE": 21.19921,
			"LONGITUDE": 72.824714,
			"NO._OF_4_WHEELER_PARKING": 91,
			"NO._OF_2_WHEELER_PARKING": 96
		},
		"ROW52": {
			"CITYNAME": "Surat",
			"ZONE_NAME": "Central Zone",
			"WARD_NAME": "NA",
			"NAME_OF_PARKING": "open plot at chauta pool pani ni parab",
			"PARKING_ADDRESS": "chauta pool",
			"LATITUDE": 21.198476,
			"LONGITUDE": 72.825082,
			"NO._OF_4_WHEELER_PARKING": 0,
			"NO._OF_2_WHEELER_PARKING": 25
		},
		"ROW53": {
			"CITYNAME": "Surat",
			"ZONE_NAME": "Central Zone",
			"WARD_NAME": "NA",
			"NAME_OF_PARKING": "opp.maskati hospital multilevel",
			"PARKING_ADDRESS": "rajmarg",
			"LATITUDE": 21.19795,
			"LONGITUDE": 72.831943,
			"NO._OF_4_WHEELER_PARKING": 166,
			"NO._OF_2_WHEELER_PARKING": 60
		},
		"ROW54": {
			"CITYNAME": "Surat",
			"ZONE_NAME": "Central Zone",
			"WARD_NAME": "NA",
			"NAME_OF_PARKING": "nanpura pumping multilevel",
			"PARKING_ADDRESS": "nanpura smc vahan depo",
			"LATITUDE": 21.185112,
			"LONGITUDE": 72.812578,
			"NO._OF_4_WHEELER_PARKING": 48,
			"NO._OF_2_WHEELER_PARKING": 53
		},
		"ROW55": {
			"CITYNAME": "Surat",
			"ZONE_NAME": "Central Zone",
			"WARD_NAME": "NA",
			"NAME_OF_PARKING": "khan saheb no della pase aavel multilevel",
			"PARKING_ADDRESS": "mahidharpura",
			"LATITUDE": 21.205395,
			"LONGITUDE": 72.833833,
			"NO._OF_4_WHEELER_PARKING": 360,
			"NO._OF_2_WHEELER_PARKING": 200
		},
		"ROW56": {
			"CITYNAME": "Surat",
			"ZONE_NAME": "Central Zone",
			"WARD_NAME": "NA",
			"NAME_OF_PARKING": "Majura to kadiwala junction",
			"PARKING_ADDRESS": "ring road",
			"LATITUDE": 21.180951,
			"LONGITUDE": 72.818368,
			"NO._OF_4_WHEELER_PARKING": 150,
			"NO._OF_2_WHEELER_PARKING": 500
		},
		"ROW57": {
			"CITYNAME": "Surat",
			"ZONE_NAME": "Central Zone",
			"WARD_NAME": "NA",
			"NAME_OF_PARKING": "majura junction to old subjail junction",
			"PARKING_ADDRESS": "ring road",
			"LATITUDE": 21.181364,
			"LONGITUDE": 72.812905,
			"NO._OF_4_WHEELER_PARKING": 400,
			"NO._OF_2_WHEELER_PARKING": 200
		},
		"ROW58": {
			"CITYNAME": "Surat",
			"ZONE_NAME": "Central Zone",
			"WARD_NAME": "NA",
			"NAME_OF_PARKING": "zone 1",
			"PARKING_ADDRESS": "ring road",
			"LATITUDE": 21.193298,
			"LONGITUDE": 72.844127,
			"NO._OF_4_WHEELER_PARKING": 450,
			"NO._OF_2_WHEELER_PARKING": 150
		},
		"ROW59": {
			"CITYNAME": "Surat",
			"ZONE_NAME": "Central Zone",
			"WARD_NAME": "NA",
			"NAME_OF_PARKING": "zone 2",
			"PARKING_ADDRESS": "ring road",
			"LATITUDE": 21.191803,
			"LONGITUDE": 72.841184,
			"NO._OF_4_WHEELER_PARKING": 500,
			"NO._OF_2_WHEELER_PARKING": 200
		},
		"ROW60": {
			"CITYNAME": "Surat",
			"ZONE_NAME": "Central Zone",
			"WARD_NAME": "NA",
			"NAME_OF_PARKING": "zone 3",
			"PARKING_ADDRESS": "ring road",
			"LATITUDE": 21.191216,
			"LONGITUDE": 72.843358,
			"NO._OF_4_WHEELER_PARKING": 300,
			"NO._OF_2_WHEELER_PARKING": 90
		},
		"ROW61": {
			"CITYNAME": "Surat",
			"ZONE_NAME": "Central Zone",
			"WARD_NAME": "NA",
			"NAME_OF_PARKING": "delhigate fly over bridge",
			"PARKING_ADDRESS": "ring road",
			"LATITUDE": 21.2029,
			"LONGITUDE": 72.839,
			"NO._OF_4_WHEELER_PARKING": 50,
			"NO._OF_2_WHEELER_PARKING": 180
		},
		"ROW62": {
			"CITYNAME": "Surat",
			"ZONE_NAME": "Central Zone",
			"WARD_NAME": "NA",
			"NAME_OF_PARKING": "ekta textile maket to kohinoor textile market",
			"PARKING_ADDRESS": "ring road",
			"LATITUDE": 21.185456,
			"LONGITUDE": 72.838482,
			"NO._OF_4_WHEELER_PARKING": 80,
			"NO._OF_2_WHEELER_PARKING": 140
		},
		"ROW63": {
			"CITYNAME": "Surat",
			"ZONE_NAME": "Central Zone",
			"WARD_NAME": "NA",
			"NAME_OF_PARKING": "21st century building to empair state building",
			"PARKING_ADDRESS": "ring road",
			"LATITUDE": 21.184047,
			"LONGITUDE": 72.83318,
			"NO._OF_4_WHEELER_PARKING": 0,
			"NO._OF_2_WHEELER_PARKING": 100
		},
		"ROW64": {
			"CITYNAME": "Surat",
			"ZONE_NAME": "Central Zone",
			"WARD_NAME": "NA",
			"NAME_OF_PARKING": "japan market to belgium tower",
			"PARKING_ADDRESS": "ring road",
			"LATITUDE": 21.201167,
			"LONGITUDE": 72.840263,
			"NO._OF_4_WHEELER_PARKING": 0,
			"NO._OF_2_WHEELER_PARKING": 100
		},
		"ROW65": {
			"CITYNAME": "Surat",
			"ZONE_NAME": "Central Zone",
			"WARD_NAME": "NA",
			"NAME_OF_PARKING": "rajhansh market to mulchand market",
			"PARKING_ADDRESS": "ring road",
			"LATITUDE": 21.1911,
			"LONGITUDE": 72.841494,
			"NO._OF_4_WHEELER_PARKING": 60,
			"NO._OF_2_WHEELER_PARKING": 450
		},
		"ROW66": {
			"CITYNAME": "Surat",
			"ZONE_NAME": "Central Zone",
			"WARD_NAME": "NA",
			"NAME_OF_PARKING": "millenium market to textile chowki",
			"PARKING_ADDRESS": "ring road",
			"LATITUDE": 21.188891,
			"LONGITUDE": 72.840965,
			"NO._OF_4_WHEELER_PARKING": 41,
			"NO._OF_2_WHEELER_PARKING": 250
		},
		"ROW67": {
			"CITYNAME": "Surat",
			"ZONE_NAME": "Central Zone",
			"WARD_NAME": "NA",
			"NAME_OF_PARKING": "MAHILA VIDHALAY GOPIPURA",
			"PARKING_ADDRESS": "GOPIPURA",
			"LATITUDE": "21..194892",
			"LONGITUDE": 72.823716,
			"NO._OF_4_WHEELER_PARKING": 10,
			"NO._OF_2_WHEELER_PARKING": 0
		},
		"ROW68": {
			"CITYNAME": "Surat",
			"ZONE_NAME": "Central Zone",
			"WARD_NAME": "NA",
			"NAME_OF_PARKING": "NEAR GUMBAJWALI MASJID",
			"PARKING_ADDRESS": "BHAGA TALAV",
			"LATITUDE": 21.197551,
			"LONGITUDE": 72.823359,
			"NO._OF_4_WHEELER_PARKING": 30,
			"NO._OF_2_WHEELER_PARKING": 2
		},
		"ROW69": {
			"CITYNAME": "Surat",
			"ZONE_NAME": "Central Zone",
			"WARD_NAME": "NA",
			"NAME_OF_PARKING": "RAJHANS BUILDING TO SUNDRAM BUILDING",
			"PARKING_ADDRESS": "RING ROAD",
			"LATITUDE": 21.181617,
			"LONGITUDE": 72.824648,
			"NO._OF_4_WHEELER_PARKING": 20,
			"NO._OF_2_WHEELER_PARKING": 30
		},
		"ROW70": {
			"CITYNAME": "Surat",
			"ZONE_NAME": "Central Zone",
			"WARD_NAME": "NA",
			"NAME_OF_PARKING": "ATHWAGATE  TO ORNET HOUSE",
			"PARKING_ADDRESS": "RING ROAD",
			"LATITUDE": 21.18281,
			"LONGITUDE": 72.812266,
			"NO._OF_4_WHEELER_PARKING": 25,
			"NO._OF_2_WHEELER_PARKING": 50
		},
		"ROW71": {
			"CITYNAME": "Surat",
			"ZONE_NAME": "Central Zone",
			"WARD_NAME": "NA",
			"NAME_OF_PARKING": "KRUSIMANGAL HOLL TO SID HOSPITAL",
			"PARKING_ADDRESS": "RING ROAD",
			"LATITUDE": 21.181665,
			"LONGITUDE": 72.81508,
			"NO._OF_4_WHEELER_PARKING": 20,
			"NO._OF_2_WHEELER_PARKING": 30
		},
		"ROW72": {
			"CITYNAME": "Surat",
			"ZONE_NAME": "Central Zone",
			"WARD_NAME": "NA",
			"NAME_OF_PARKING": "JUSBRIENT HOSPITAL TO ATHWAGATE",
			"PARKING_ADDRESS": "RING ROAD",
			"LATITUDE": 21.18321,
			"LONGITUDE": 72.81386,
			"NO._OF_4_WHEELER_PARKING": 20,
			"NO._OF_2_WHEELER_PARKING": 60
		},
		"ROW73": {
			"CITYNAME": "Surat",
			"ZONE_NAME": "SWZ(Athwa) Zone",
			"WARD_NAME": "13 A",
			"NAME_OF_PARKING": "SMC PAY AND PARK",
			"PARKING_ADDRESS": "TP5 FPM 6 Athwa Umra",
			"LATITUDE": 21.175389,
			"LONGITUDE": 72.802415,
			"NO._OF_4_WHEELER_PARKING": 100,
			"NO._OF_2_WHEELER_PARKING": 350
		},
		"ROW74": {
			"CITYNAME": "Surat",
			"ZONE_NAME": "SWZ(Athwa) Zone",
			"WARD_NAME": "13 A",
			"NAME_OF_PARKING": "SMC PAY AND PARK",
			"PARKING_ADDRESS": "PARLE POINT JUNCTION UNDER FLY OVER BRIDGE SURAT DUMAS ROAD",
			"LATITUDE": 21.171767,
			"LONGITUDE": 72.790806,
			"NO._OF_4_WHEELER_PARKING": 77,
			"NO._OF_2_WHEELER_PARKING": 390
		},
		"ROW75": {
			"CITYNAME": "Surat",
			"ZONE_NAME": "SWZ(Athwa) Zone",
			"WARD_NAME": "85 A",
			"NAME_OF_PARKING": "SMC PAY AND PARK",
			"PARKING_ADDRESS": "TP3 (RUNDH) FP76 VALANTINE CINEVISION",
			"LATITUDE": 21.156054,
			"LONGITUDE": 72.764084,
			"NO._OF_4_WHEELER_PARKING": 67,
			"NO._OF_2_WHEELER_PARKING": 170
		},
		"ROW76": {
			"CITYNAME": "Surat",
			"ZONE_NAME": "SWZ(Athwa) Zone",
			"WARD_NAME": "85 A",
			"NAME_OF_PARKING": "SMC PAY AND PARK",
			"PARKING_ADDRESS": "TP3 (RUNDH) FP68 RUDHNATH MAHADEV MANDIR",
			"LATITUDE": 21.149479,
			"LONGITUDE": 72.761136,
			"NO._OF_4_WHEELER_PARKING": 50,
			"NO._OF_2_WHEELER_PARKING": 186
		},
		"ROW77": {
			"CITYNAME": "Surat",
			"ZONE_NAME": "SWZ(Athwa) Zone",
			"WARD_NAME": "33 A",
			"NAME_OF_PARKING": "SMC PAY AND PARK",
			"PARKING_ADDRESS": "TP28 (ALTHANBHATAR) FP122",
			"LATITUDE": 21.15681,
			"LONGITUDE": 72.810149,
			"NO._OF_4_WHEELER_PARKING": 40,
			"NO._OF_2_WHEELER_PARKING": 100
		},
		"ROW78": {
			"CITYNAME": "Surat",
			"ZONE_NAME": "SWZ(Athwa) Zone",
			"WARD_NAME": "85 A",
			"NAME_OF_PARKING": "SMC PAY AND PARK",
			"PARKING_ADDRESS": "TP3 (RUNDH) FP72 SAI BABA MANDIR",
			"LATITUDE": 21.154206,
			"LONGITUDE": 72.76351,
			"NO._OF_4_WHEELER_PARKING": 30,
			"NO._OF_2_WHEELER_PARKING": 50
		},
		"ROW79": {
			"CITYNAME": "Surat",
			"ZONE_NAME": "SWZ(Athwa) Zone",
			"WARD_NAME": "32 A",
			"NAME_OF_PARKING": "SMC PAY AND PARK",
			"PARKING_ADDRESS": "SOSYO CIRCLE UNDER FLY OVER BRIDGE",
			"LATITUDE": 21.172707,
			"LONGITUDE": 72.827129,
			"NO._OF_4_WHEELER_PARKING": 65,
			"NO._OF_2_WHEELER_PARKING": 157
		},
		"ROW80": {
			"CITYNAME": "Surat",
			"ZONE_NAME": "SWZ(Athwa) Zone",
			"WARD_NAME": "32 A",
			"NAME_OF_PARKING": "SMC PAY AND PARK",
			"PARKING_ADDRESS": "BHATAR CHAR RASTA UNDER FLY OVER BRIDGE",
			"LATITUDE": 21.162813,
			"LONGITUDE": 72.81238,
			"NO._OF_4_WHEELER_PARKING": 67,
			"NO._OF_2_WHEELER_PARKING": 130
		},
		"ROW81": {
			"CITYNAME": "Surat",
			"ZONE_NAME": "SWZ(Athwa) Zone",
			"WARD_NAME": "13 A",
			"NAME_OF_PARKING": "SMC PAY AND PARK",
			"PARKING_ADDRESS": "WARD13 (ATHWA) NONDH NO.642 CHOPATI",
			"LATITUDE": 21.184176,
			"LONGITUDE": 72.805761,
			"NO._OF_4_WHEELER_PARKING": 50,
			"NO._OF_2_WHEELER_PARKING": 157
		}
	}
}